{
    "cities": [
        {
            "name": "Tokyo",
            "latitude": 35.6897,
            "longitude": 139.692,
            "country": "JP",
            "population": 37977000,
            "is_capital": true
        },
        {
            "name": "Jakarta",
            "latitude": -6.2146,
            "longitude": 106.845,
            "country": "ID",
            "population": 34540000,
            "is_capital": true
        },
        {
            "name": "Delhi",
            "latitude": 28.66,
            "longitude": 77.23,
            "country": "IN",
            "population": 29617000,
            "is_capital": false
        },
        {
            "name": "Mumbai",
            "latitude": 18.9667,
            "longitude": 72.8333,
            "country": "IN",
            "population": 23355000,
            "is_capital": false
        },
        {
            "name": "Manila",
            "latitude": 14.5958,
            "longitude": 120.977,
            "country": "PH",
            "population": 23088000,
            "is_capital": true
        },
        {
            "name": "Shanghai",
            "latitude": 31.1667,
            "longitude": 121.467,
            "country": "CN",
            "population": 22120000,
            "is_capital": false
        },
        {
            "name": "Sao Paulo",
            "latitude": -23.5504,
            "longitude": -46.6339,
            "country": "BR",
            "population": 22046000,
            "is_capital": false
        },
        {
            "name": "Seoul",
            "latitude": 37.5833,
            "longitude": 127.0,
            "country": "KR",
            "population": 21794000,
            "is_capital": true
        },
        {
            "name": "Mexico City",
            "latitude": 19.4333,
            "longitude": -99.1333,
            "country": "MX",
            "population": 20996000,
            "is_capital": true
        },
        {
            "name": "Guangzhou",
            "latitude": 23.1288,
            "longitude": 113.259,
            "country": "CN",
            "population": 20902000,
            "is_capital": false
        },
        {
            "name": "Beijing",
            "latitude": 39.905,
            "longitude": 116.391,
            "country": "CN",
            "population": 19433000,
            "is_capital": true
        },
        {
            "name": "Cairo",
            "latitude": 30.0561,
            "longitude": 31.2394,
            "country": "EG",
            "population": 19372000,
            "is_capital": true
        },
        {
            "name": "New York",
            "latitude": 40.6943,
            "longitude": -73.9249,
            "country": "US",
            "population": 18713220,
            "is_capital": false
        },
        {
            "name": "Kolkata",
            "latitude": 22.5411,
            "longitude": 88.3378,
            "country": "IN",
            "population": 17560000,
            "is_capital": false
        },
        {
            "name": "Moscow",
            "latitude": 55.7558,
            "longitude": 37.6178,
            "country": "RU",
            "population": 17125000,
            "is_capital": true
        },
        {
            "name": "Bangkok",
            "latitude": 13.75,
            "longitude": 100.517,
            "country": "TH",
            "population": 17066000,
            "is_capital": true
        },
        {
            "name": "Buenos Aires",
            "latitude": -34.5997,
            "longitude": -58.3819,
            "country": "AR",
            "population": 16157000,
            "is_capital": true
        },
        {
            "name": "Shenzhen",
            "latitude": 22.535,
            "longitude": 114.054,
            "country": "CN",
            "population": 15929000,
            "is_capital": false
        },
        {
            "name": "Dhaka",
            "latitude": 23.7161,
            "longitude": 90.3961,
            "country": "BD",
            "population": 15443000,
            "is_capital": true
        },
        {
            "name": "Lagos",
            "latitude": 6.45,
            "longitude": 3.4,
            "country": "NG",
            "population": 15279000,
            "is_capital": false
        },
        {
            "name": "Istanbul",
            "latitude": 41.01,
            "longitude": 28.9603,
            "country": "TR",
            "population": 15154000,
            "is_capital": false
        },
        {
            "name": "Osaka",
            "latitude": 34.6936,
            "longitude": 135.502,
            "country": "JP",
            "population": 14977000,
            "is_capital": false
        },
        {
            "name": "Karachi",
            "latitude": 24.86,
            "longitude": 67.01,
            "country": "PK",
            "population": 14835000,
            "is_capital": false
        },
        {
            "name": "Bangalore",
            "latitude": 12.9699,
            "longitude": 77.598,
            "country": "IN",
            "population": 13707000,
            "is_capital": false
        },
        {
            "name": "Tehran",
            "latitude": 35.7,
            "longitude": 51.4167,
            "country": "IR",
            "population": 13633000,
            "is_capital": true
        },
        {
            "name": "Kinshasa",
            "latitude": -4.3317,
            "longitude": 15.3139,
            "country": "CD",
            "population": 13528000,
            "is_capital": true
        },
        {
            "name": "Ho Chi Minh City",
            "latitude": 10.8167,
            "longitude": 106.633,
            "country": "VN",
            "population": 13312000,
            "is_capital": false
        },
        {
            "name": "Los Angeles",
            "latitude": 34.1139,
            "longitude": -118.407,
            "country": "US",
            "population": 12750807,
            "is_capital": false
        },
        {
            "name": "Rio De Janeiro",
            "latitude": -22.9083,
            "longitude": -43.1964,
            "country": "BR",
            "population": 12272000,
            "is_capital": false
        },
        {
            "name": "Nanyang",
            "latitude": 32.9987,
            "longitude": 112.529,
            "country": "CN",
            "population": 12010000,
            "is_capital": false
        },
        {
            "name": "Chennai",
            "latitude": 13.0825,
            "longitude": 80.275,
            "country": "IN",
            "population": 11324000,
            "is_capital": false
        },
        {
            "name": "Chengdu",
            "latitude": 30.6636,
            "longitude": 104.067,
            "country": "CN",
            "population": 11309000,
            "is_capital": false
        },
        {
            "name": "Lahore",
            "latitude": 31.5497,
            "longitude": 74.3436,
            "country": "PK",
            "population": 11021000,
            "is_capital": false
        },
        {
            "name": "Paris",
            "latitude": 48.8566,
            "longitude": 2.3522,
            "country": "FR",
            "population": 11020000,
            "is_capital": true
        },
        {
            "name": "London",
            "latitude": 51.5072,
            "longitude": -0.1275,
            "country": "GB",
            "population": 10979000,
            "is_capital": true
        },
        {
            "name": "Linyi",
            "latitude": 35.0606,
            "longitude": 118.342,
            "country": "CN",
            "population": 10820000,
            "is_capital": false
        },
        {
            "name": "Tianjin",
            "latitude": 39.1467,
            "longitude": 117.206,
            "country": "CN",
            "population": 10800000,
            "is_capital": false
        },
        {
            "name": "Shijiazhuang",
            "latitude": 38.0422,
            "longitude": 114.509,
            "country": "CN",
            "population": 10784600,
            "is_capital": false
        },
        {
            "name": "Baoding",
            "latitude": 38.8671,
            "longitude": 115.484,
            "country": "CN",
            "population": 10700000,
            "is_capital": false
        },
        {
            "name": "Zhoukou",
            "latitude": 33.625,
            "longitude": 114.642,
            "country": "CN",
            "population": 9901000,
            "is_capital": false
        },
        {
            "name": "Lima",
            "latitude": -12.05,
            "longitude": -77.0333,
            "country": "PE",
            "population": 9848000,
            "is_capital": true
        },
        {
            "name": "Hyderabad",
            "latitude": 17.3667,
            "longitude": 78.4667,
            "country": "IN",
            "population": 9746000,
            "is_capital": false
        },
        {
            "name": "Bogota",
            "latitude": 4.6126,
            "longitude": -74.0705,
            "country": "CO",
            "population": 9464000,
            "is_capital": true
        },
        {
            "name": "Weifang",
            "latitude": 36.7167,
            "longitude": 119.1,
            "country": "CN",
            "population": 9373000,
            "is_capital": false
        },
        {
            "name": "Nagoya",
            "latitude": 35.1167,
            "longitude": 136.933,
            "country": "JP",
            "population": 9113000,
            "is_capital": false
        },
        {
            "name": "Wuhan",
            "latitude": 30.5872,
            "longitude": 114.288,
            "country": "CN",
            "population": 8962000,
            "is_capital": false
        },
        {
            "name": "Heze",
            "latitude": 35.2333,
            "longitude": 115.433,
            "country": "CN",
            "population": 8750000,
            "is_capital": false
        },
        {
            "name": "Ganzhou",
            "latitude": 25.8292,
            "longitude": 114.934,
            "country": "CN",
            "population": 8677600,
            "is_capital": false
        },
        {
            "name": "Tongshan",
            "latitude": 34.261,
            "longitude": 117.186,
            "country": "CN",
            "population": 8669000,
            "is_capital": false
        },
        {
            "name": "Chicago",
            "latitude": 41.8373,
            "longitude": -87.6862,
            "country": "US",
            "population": 8604203,
            "is_capital": false
        },
        {
            "name": "Handan",
            "latitude": 36.6116,
            "longitude": 114.489,
            "country": "CN",
            "population": 8499000,
            "is_capital": false
        },
        {
            "name": "Luanda",
            "latitude": -8.8383,
            "longitude": 13.2344,
            "country": "AO",
            "population": 8417000,
            "is_capital": true
        },
        {
            "name": "Fuyang",
            "latitude": 32.8986,
            "longitude": 115.804,
            "country": "CN",
            "population": 8360000,
            "is_capital": false
        },
        {
            "name": "Kuala Lumpur",
            "latitude": 3.1478,
            "longitude": 101.695,
            "country": "MY",
            "population": 8285000,
            "is_capital": true
        },
        {
            "name": "Jining",
            "latitude": 35.4,
            "longitude": 116.567,
            "country": "CN",
            "population": 8023000,
            "is_capital": false
        },
        {
            "name": "Dongguan",
            "latitude": 23.0475,
            "longitude": 113.749,
            "country": "CN",
            "population": 7981000,
            "is_capital": false
        },
        {
            "name": "Hanoi",
            "latitude": 21.0245,
            "longitude": 105.841,
            "country": "VN",
            "population": 7785000,
            "is_capital": true
        },
        {
            "name": "Pune",
            "latitude": 18.5196,
            "longitude": 73.8553,
            "country": "IN",
            "population": 7764000,
            "is_capital": false
        },
        {
            "name": "Chongqing",
            "latitude": 29.55,
            "longitude": 106.507,
            "country": "CN",
            "population": 7739000,
            "is_capital": false
        },
        {
            "name": "Changchun",
            "latitude": 43.9,
            "longitude": 125.2,
            "country": "CN",
            "population": 7674439,
            "is_capital": false
        }
    ],

    "countryCodeToName": {
        "BD": "Bangladesh",
        "BE": "Belgium",
        "BF": "Burkina Faso",
        "BG": "Bulgaria",
        "BA": "Bosnia and Herzegovina",
        "BB": "Barbados",
        "WF": "Wallis and Futuna",
        "BL": "Saint Barthelemy",
        "BM": "Bermuda",
        "BN": "Brunei",
        "BO": "Bolivia",
        "BH": "Bahrain",
        "BI": "Burundi",
        "BJ": "Benin",
        "BT": "Bhutan",
        "JM": "Jamaica",
        "BV": "Bouvet Island",
        "BW": "Botswana",
        "WS": "Samoa",
        "BQ": "Bonaire, Saint Eustatius and Saba ",
        "BR": "Brazil",
        "BS": "Bahamas",
        "JE": "Jersey",
        "BY": "Belarus",
        "BZ": "Belize",
        "RU": "Russia",
        "RW": "Rwanda",
        "RS": "Serbia",
        "TL": "East Timor",
        "RE": "Reunion",
        "TM": "Turkmenistan",
        "TJ": "Tajikistan",
        "RO": "Romania",
        "TK": "Tokelau",
        "GW": "Guinea-Bissau",
        "GU": "Guam",
        "GT": "Guatemala",
        "GS": "South Georgia and the South Sandwich Islands",
        "GR": "Greece",
        "GQ": "Equatorial Guinea",
        "GP": "Guadeloupe",
        "JP": "Japan",
        "GY": "Guyana",
        "GG": "Guernsey",
        "GF": "French Guiana",
        "GE": "Georgia",
        "GD": "Grenada",
        "GB": "United Kingdom",
        "GA": "Gabon",
        "SV": "El Salvador",
        "GN": "Guinea",
        "GM": "Gambia",
        "GL": "Greenland",
        "GI": "Gibraltar",
        "GH": "Ghana",
        "OM": "Oman",
        "TN": "Tunisia",
        "JO": "Jordan",
        "HR": "Croatia",
        "HT": "Haiti",
        "HU": "Hungary",
        "HK": "Hong Kong",
        "HN": "Honduras",
        "HM": "Heard Island and McDonald Islands",
        "VE": "Venezuela",
        "PR": "Puerto Rico",
        "PS": "Palestinian Territory",
        "PW": "Palau",
        "PT": "Portugal",
        "SJ": "Svalbard and Jan Mayen",
        "PY": "Paraguay",
        "IQ": "Iraq",
        "PA": "Panama",
        "PF": "French Polynesia",
        "PG": "Papua New Guinea",
        "PE": "Peru",
        "PK": "Pakistan",
        "PH": "Philippines",
        "PN": "Pitcairn",
        "PL": "Poland",
        "PM": "Saint Pierre and Miquelon",
        "ZM": "Zambia",
        "EH": "Western Sahara",
        "EE": "Estonia",
        "EG": "Egypt",
        "ZA": "South Africa",
        "EC": "Ecuador",
        "IT": "Italy",
        "VN": "Vietnam",
        "SB": "Solomon Islands",
        "ET": "Ethiopia",
        "SO": "Somalia",
        "ZW": "Zimbabwe",
        "SA": "Saudi Arabia",
        "ES": "Spain",
        "ER": "Eritrea",
        "ME": "Montenegro",
        "MD": "Moldova",
        "MG": "Madagascar",
        "MF": "Saint Martin",
        "MA": "Morocco",
        "MC": "Monaco",
        "UZ": "Uzbekistan",
        "MM": "Myanmar",
        "ML": "Mali",
        "MO": "Macao",
        "MN": "Mongolia",
        "MH": "Marshall Islands",
        "MK": "Macedonia",
        "MU": "Mauritius",
        "MT": "Malta",
        "MW": "Malawi",
        "MV": "Maldives",
        "MQ": "Martinique",
        "MP": "Northern Mariana Islands",
        "MS": "Montserrat",
        "MR": "Mauritania",
        "IM": "Isle of Man",
        "UG": "Uganda",
        "TZ": "Tanzania",
        "MY": "Malaysia",
        "MX": "Mexico",
        "IL": "Israel",
        "FR": "France",
        "IO": "British Indian Ocean Territory",
        "SH": "Saint Helena",
        "FI": "Finland",
        "FJ": "Fiji",
        "FK": "Falkland Islands",
        "FM": "Micronesia",
        "FO": "Faroe Islands",
        "NI": "Nicaragua",
        "NL": "Netherlands",
        "NO": "Norway",
        "NA": "Namibia",
        "VU": "Vanuatu",
        "NC": "New Caledonia",
        "NE": "Niger",
        "NF": "Norfolk Island",
        "NG": "Nigeria",
        "NZ": "New Zealand",
        "NP": "Nepal",
        "NR": "Nauru",
        "NU": "Niue",
        "CK": "Cook Islands",
        "XK": "Kosovo",
        "CI": "Ivory Coast",
        "CH": "Switzerland",
        "CO": "Colombia",
        "CN": "China",
        "CM": "Cameroon",
        "CL": "Chile",
        "CC": "Cocos Islands",
        "CA": "Canada",
        "CG": "Republic of the Congo",
        "CF": "Central African Republic",
        "CD": "Democratic Republic of the Congo",
        "CZ": "Czech Republic",
        "CY": "Cyprus",
        "CX": "Christmas Island",
        "CR": "Costa Rica",
        "CW": "Curacao",
        "CV": "Cape Verde",
        "CU": "Cuba",
        "SZ": "Swaziland",
        "SY": "Syria",
        "SX": "Sint Maarten",
        "KG": "Kyrgyzstan",
        "KE": "Kenya",
        "SS": "South Sudan",
        "SR": "Suriname",
        "KI": "Kiribati",
        "KH": "Cambodia",
        "KN": "Saint Kitts and Nevis",
        "KM": "Comoros",
        "ST": "Sao Tome and Principe",
        "SK": "Slovakia",
        "KR": "South Korea",
        "SI": "Slovenia",
        "KP": "North Korea",
        "KW": "Kuwait",
        "SN": "Senegal",
        "SM": "San Marino",
        "SL": "Sierra Leone",
        "SC": "Seychelles",
        "KZ": "Kazakhstan",
        "KY": "Cayman Islands",
        "SG": "Singapore",
        "SE": "Sweden",
        "SD": "Sudan",
        "DO": "Dominican Republic",
        "DM": "Dominica",
        "DJ": "Djibouti",
        "DK": "Denmark",
        "VG": "British Virgin Islands",
        "DE": "Germany",
        "YE": "Yemen",
        "DZ": "Algeria",
        "US": "United States",
        "UY": "Uruguay",
        "YT": "Mayotte",
        "UM": "United States Minor Outlying Islands",
        "LB": "Lebanon",
        "LC": "Saint Lucia",
        "LA": "Laos",
        "TV": "Tuvalu",
        "TW": "Taiwan",
        "TT": "Trinidad and Tobago",
        "TR": "Turkey",
        "LK": "Sri Lanka",
        "LI": "Liechtenstein",
        "LV": "Latvia",
        "TO": "Tonga",
        "LT": "Lithuania",
        "LU": "Luxembourg",
        "LR": "Liberia",
        "LS": "Lesotho",
        "TH": "Thailand",
        "TF": "French Southern Territories",
        "TG": "Togo",
        "TD": "Chad",
        "TC": "Turks and Caicos Islands",
        "LY": "Libya",
        "VA": "Vatican",
        "VC": "Saint Vincent and the Grenadines",
        "AE": "United Arab Emirates",
        "AD": "Andorra",
        "AG": "Antigua and Barbuda",
        "AF": "Afghanistan",
        "AI": "Anguilla",
        "VI": "U.S. Virgin Islands",
        "IS": "Iceland",
        "IR": "Iran",
        "AM": "Armenia",
        "AL": "Albania",
        "AO": "Angola",
        "AQ": "Antarctica",
        "AS": "American Samoa",
        "AR": "Argentina",
        "AU": "Australia",
        "AT": "Austria",
        "AW": "Aruba",
        "IN": "India",
        "AX": "Aland Islands",
        "AZ": "Azerbaijan",
        "IE": "Ireland",
        "ID": "Indonesia",
        "UA": "Ukraine",
        "QA": "Qatar",
        "MZ": "Mozambique"
    }
}